[
    { "name": "Harare", "lat": -17.8251657, "lon": 31.03351 },
    { "name": "Bulawayo", "lat": -20.132499, "lon": 28.626479 },
    { "name": "Chitungwiza", "lat": -18.012741, "lon": 31.07555 },
    { "name": "Mutare", "lat": -18.970697, "lon": 32.670861 },
    { "name": "Gweru", "lat": -19.457917, "lon": 29.818249 },
    { "name": "Kwekwe", "lat": -18.9281, "lon": 29.8149 },
    { "name": "Kadoma", "lat": -18.3333, "lon": 29.914 },
    { "name": "Masvingo", "lat": -20.0637, "lon": 30.8277 },
    { "name": "Chinhoyi", "lat": -17.366669, "lon": 30.2 },
    { "name": "Marondera", "lat": -18.189907, "lon": 31.551765 },
    { "name": "Zvishavane", "lat": -20.3264, "lon": 30.0665 },
    { "name": "Norton", "lat": -17.8833, "lon": 30.7 },
    { "name": "Victoria Falls", "lat": -17.931805, "lon": 25.825556 },
    { "name": "Hwange", "lat": -18.3696, "lon": 26.4988 },
    { "name": "Rusape", "lat": -18.533331, "lon": 32.116669 },
    { "name": "Redcliff", "lat": -19.0336, "lon": 29.7814 },
    { "name": "Chegutu", "lat": -18.130239, "lon": 30.140741 },
    { "name": "Bindura", "lat": -17.30189, "lon": 31.33056 },
    { "name": "Beitbridge", "lat": -22.2167, "lon": 30.0 },
    { "name": "Shurugwi", "lat": -19.67028, "lon": 30.00375 },
    { "name": "Chipinge", "lat": -20.1886, "lon": 32.6236 },
    { "name": "Kariba", "lat": -16.51667, "lon": 28.8 },
    { "name": "Karoi", "lat": -16.8099, "lon": 29.6925 },
    { "name": "Gokwe", "lat": -18.21843, "lon": 28.93476 }
]
